{
"type": "FeatureCollection",
"crs": { "type": "name", "properties": { "name": "urn:ogc:def:crs:OGC:1.3:CRS84" } },
"features": [
{ "type": "Feature", "properties": { "Last Name": "Alger", "First Name": "Anna Irene", "Address 1": "14078 S. Almaden Cove", "Address 2": null, "zip": "84065", "Priority": "3", "city": "bluffdale", "state": "Utah", "": null, "addrtype": "street_address", "addrlocat": "ROOFTOP" }, "geometry": { "type": "Point", "coordinates": [ -111.93236, 40.4958079 ] } },
{ "type": "Feature", "properties": { "Last Name": "Allen", "First Name": "Charles", "Address 1": "1397 West Black Wulff Dr", "Address 2": null, "zip": "84065", "Priority": "1", "city": "bluffdale", "state": "Utah", "": null, "addrtype": "street_address", "addrlocat": "ROOFTOP" }, "geometry": { "type": "Point", "coordinates": [ -111.931389, 40.4904036 ] } },
{ "type": "Feature", "properties": { "Last Name": "Allen", "First Name": "Kara", "Address 1": "1397 West Black Wulff Dr", "Address 2": null, "zip": "84065", "Priority": "2", "city": "bluffdale", "state": "Utah", "": null, "addrtype": "street_address", "addrlocat": "ROOFTOP" }, "geometry": { "type": "Point", "coordinates": [ -111.931389, 40.4904036 ] } },
{ "type": "Feature", "properties": { "Last Name": "Allred", "First Name": "Megan", "Address 1": "14036 S Marketview Dr", "Address 2": "Apt H-201", "zip": "84065-3701", "Priority": "3", "city": "bluffdale", "state": "Utah", "": null, "addrtype": "route", "addrlocat": "GEOMETRIC_CENTER" }, "geometry": { "type": "Point", "coordinates": [ -111.9326124, 40.4967615 ] } },
{ "type": "Feature", "properties": { "Last Name": "Amerson", "First Name": "Brady", "Address 1": "14035 S Marketview Dr", "Address 2": "Apt L204", "zip": "84065-3828", "Priority": "1", "city": "bluffdale", "state": "Utah", "": null, "addrtype": "street_address", "addrlocat": "ROOFTOP" }, "geometry": { "type": "Point", "coordinates": [ -111.9310409, 40.4968941 ] } },
{ "type": "Feature", "properties": { "Last Name": "Amerson", "First Name": "Justina", "Address 1": "14035 S Marketview Dr", "Address 2": "Apt L204", "zip": "84065-3828", "Priority": "2", "city": "bluffdale", "state": "Utah", "": null, "addrtype": "street_address", "addrlocat": "ROOFTOP" }, "geometry": { "type": "Point", "coordinates": [ -111.9310409, 40.4968941 ] } },
{ "type": "Feature", "properties": { "Last Name": "Anderson", "First Name": "James", "Address 1": "14056 S Sonora Way", "Address 2": null, "zip": "84065-3853", "Priority": "3", "city": "bluffdale", "state": "Utah", "": null, "addrtype": "street_address", "addrlocat": "ROOFTOP" }, "geometry": { "type": "Point", "coordinates": [ -111.933831, 40.496105 ] } },
{ "type": "Feature", "properties": { "Last Name": "Anderson", "First Name": "Tish", "Address 1": "14056 S Sonora Way", "Address 2": null, "zip": "84065-3853", "Priority": "4", "city": "bluffdale", "state": "Utah", "": null, "addrtype": "street_address", "addrlocat": "ROOFTOP" }, "geometry": { "type": "Point", "coordinates": [ -111.933831, 40.496105 ] } },
{ "type": "Feature", "properties": { "Last Name": "Christensen", "First Name": "Aubrey", "Address 1": "14082 South Almaden Cove", "Address 2": null, "zip": "84065", "Priority": "1", "city": "bluffdale", "state": "Utah", "": null, "addrtype": "street_address", "addrlocat": "ROOFTOP" }, "geometry": { "type": "Point", "coordinates": [ -111.932311, 40.49582 ] } },
{ "type": "Feature", "properties": { "Last Name": "Crawford", "First Name": "Joe", "Address 1": "14283 S Black Wulff Dr", "Address 2": null, "zip": "84065", "Priority": "2", "city": "bluffdale", "state": "Utah", "": null, "addrtype": "street_address", "addrlocat": "RANGE_INTERPOLATED" }, "geometry": { "type": "Point", "coordinates": [ -111.930617, 40.4913048 ] } },
{ "type": "Feature", "properties": { "Last Name": "Crawford", "First Name": "Karen", "Address 1": "14283 S Black Wulff Dr", "Address 2": null, "zip": "84065", "Priority": "1", "city": "bluffdale", "state": "Utah", "": null, "addrtype": "street_address", "addrlocat": "RANGE_INTERPOLATED" }, "geometry": { "type": "Point", "coordinates": [ -111.930617, 40.4913048 ] } },
{ "type": "Feature", "properties": { "Last Name": "Darby", "First Name": "Steven", "Address 1": "14035 S Market View Dr", "Address 2": "#F203", "zip": "84065", "Priority": "2", "city": "bluffdale", "state": "Utah", "": null, "addrtype": "street_address", "addrlocat": "ROOFTOP" }, "geometry": { "type": "Point", "coordinates": [ -111.9310409, 40.4968941 ] } },
{ "type": "Feature", "properties": { "Last Name": "Eastman", "First Name": "Heber", "Address 1": "1393 W Salmon Caddis", "Address 2": null, "zip": "84065", "Priority": "2", "city": "bluffdale", "state": "Utah", "": null, "addrtype": "street_address", "addrlocat": "RANGE_INTERPOLATED" }, "geometry": { "type": "Point", "coordinates": [ -111.9316331, 40.4927623 ] } }
]
}
